id,utime,name,lat,lon
7655,2025-09-03T03:00:00+03:00,"Str. Lacul Morii, Lacul Morii, Romania",44.4556327,26.0251529
7656,2025-09-03T03:00:00+03:00,"Str. Drumul Taberei, Drumul Taberei, Romania",44.4258997,26.0544366
7657,2025-09-03T03:00:00+03:00,"Calea Victoriei, Cercul Militar, Romania",44.435029,26.098609
8590,2025-09-03T03:00:00+03:00,"Str. Rotunda, Titan, Romania",44.4185543,26.1615982
101023,2025-01-22T14:15:03Z,Strada Fuiorului,44.51761559966,25.9842646122
105133,2025-03-19T08:37:36Z,Strada Fabricii,44.4390848708,26.04347974062
108718,2025-09-03T00:35:18Z,Intrarea Smaranda,44.3959,26.1025
109177,2025-08-23T08:10:48Z,Mogoșoaia,44.5325,25.9763
109186,2025-09-03T00:49:53Z,Strada Cremenița,44.4640249,26.1377147
109210,2025-09-03T00:48:37Z,Drumul Fermei,44.37096,26.15399
109243,2025-06-25T11:31:21Z,Strada Paul Greceanu,44.45191,26.10543
109288,2025-02-26T18:08:37Z,Strada Orșova,44.442518,26.0296005
109675,2025-03-17T08:29:40Z,Strada Siriului,44.484928,26.098362
109702,2025-09-03T00:47:26Z,Strada Barbu Urleanu,44.425952,26.06673
109819,2025-09-03T00:48:25Z,Strada Soldat Ion Ciocodeică,44.394116,26.10739885
109861,2025-09-03T00:44:21Z,Strada Sfinții Voievozi,44.3908,26.1695
109864,2025-09-03T00:47:52Z,Strada Armenească,44.525835,25.986329
110287,2025-09-03T00:49:03Z,Titan - Balta Albă,44.422444,26.153975
110290,2025-09-03T00:40:32Z,Strada Liviu Rebreanu,44.422833,26.151681
110380,2025-09-03T00:36:31Z,Militari,44.43517381,26.04428495
110578,2025-09-03T00:35:15Z,Tamași,44.5787,26.0058
111118,2025-09-03T00:35:31Z,Bulevardul Bucureștii Noi,44.47997013,26.0418307
111148,2025-09-03T00:35:15Z,Strada Viilor,44.453754,25.979103
111172,2025-09-03T00:49:47Z,Strada Sergent Lazăr Gafton,44.407899,26.090406
112240,2025-04-01T20:57:04Z,Tamași,44.5817,26.0092
114166,2025-09-03T00:39:34Z,Strada Tudor Arghezi,44.555333,26.14166
114598,2025-09-03T00:36:35Z,Strada Câmpul Pipera,44.5116145,26.1030358
121855,2025-09-03T00:45:01Z,Strada Gârlei,44.490069,26.0748503
121864,2025-03-11T12:52:45Z,Strada Fizicienilor,44.4103807,26.1477656
121888,2025-09-03T00:44:01Z,Drumul Vlașin,44.394335,26.04133
121957,2024-11-22T13:36:24Z,Strada Erou Șerban Bogdan Stan,44.435,26.0116
121981,2025-09-03T00:36:15Z,Calea Moșilor,44.4323,26.1063
122317,2025-09-02T23:26:31Z,Strada Drumul Bacriului,44.444,26.006
122899,2025-06-13T16:45:59Z,Strada Reconstrucției,44.585422,26.135621
122974,2025-09-03T00:43:45Z,Strada Bălții,44.550936,26.127154
125581,2025-09-03T00:41:17Z,Bulevardul Iuliu Maniu,44.435362,25.976038
125692,2025-09-03T00:35:55Z,Strada Valea Călugărească,44.41674,26.032923
125704,2025-09-03T00:41:36Z,Calea Giulești,44.470166,26.002357
128605,2025-07-15T06:17:36Z,Strada Valea Mieilor,44.43358372347,26.20249557534
129610,2025-09-03T00:48:08Z,Strada Acțiunii,44.37057,26.10209
129658,2025-02-21T10:27:43Z,Intrarea Josef Pilsudski -mareșal polonez-,44.4464,26.1032
129778,2025-09-03T00:37:24Z,Strada Litoralului,44.4721,26.1453
130291,2025-09-03T00:49:13Z,Strada Rezervelor,44.44631195248,25.98586320877
134254,2024-11-07T03:58:46Z,Strada Parincea,44.39114827786,26.12615346909
157984,2025-04-15T04:48:33Z,Strada Sutașului,44.46268543382,26.06076335789
170428,2025-09-03T00:44:44Z,Strada Belgrad,44.5512,26.0898
175045,2025-09-03T00:48:46Z,Strada Belgrad,44.55123544787,26.089872837
175051,2025-07-27T09:19:32Z,Strada Belgrad,44.55107794784,26.08994579312
176068,2025-04-16T01:05:44Z,Strada Brașov,44.4162,26.0358
192283,2025-09-03T00:41:27Z,Strada Irisului,44.5354628,26.1734525
192529,2025-09-03T00:48:21Z,Strada General Nicolae Haralambie,44.41345388987,26.10006952305
192682,2025-09-03T00:39:56Z,Strada Zăvoiului,44.4071855,25.8842334
193477,2024-09-16T08:11:14Z,Strada Foișorului,44.418,26.122
194467,2025-06-30T07:47:14Z,Șoseaua Nicolae Titulescu,44.45275936705,26.07507348061
196468,2025-09-03T00:48:39Z,Bulevardul Lacul Tei,44.4606097,26.1155007
198082,2025-09-03T00:37:51Z,Donauring,44.5041,25.9922
216259,2025-09-03T00:47:33Z,Strada Parângului,44.4760053,26.0492881
226768,2025-09-03T00:47:36Z,Drumul Cavnic,44.507528,26.019139
228364,2025-09-03T00:47:17Z,Splaiul Unirii,44.4202547,26.11081165
237289,2024-09-14T09:11:40Z,Strada Pinului,44.54631239,25.86781911
238453,2025-09-03T00:35:13Z,Strada Vasile Alecsandri,44.512042,26.155628
244234,2025-09-03T00:48:19Z,Strada Samuil Vulcan,44.42081043259,26.0687059164
246190,2025-08-28T01:37:44Z,Șoseaua Olteniței,44.38465,26.155349
250417,2025-09-03T00:47:26Z,Strada Filofteia Gheorghiu,44.402778,26.089722
251995,2025-04-22T07:48:42Z,Drumul Binelui,44.37508725351,26.12849771966
349786,2025-08-13T17:33:00Z,Strada Italiană,44.438436,26.1063
349801,2025-09-03T00:42:05Z,Strada Doctor Emanoil Bacaloglu,44.43900375,26.106278
349942,2025-08-13T17:23:47Z,Strada Italiană,44.438436,26.106922
373792,2025-09-03T00:49:51Z,Intrarea B,44.6,26.032
374959,2025-09-03T00:47:45Z,Strada Călugăreni,44.34757,26.02838
400381,2025-07-31T12:45:43Z,Strada Călugăreni,44.3476,26.02838
417121,2025-09-03T00:48:06Z,Strada Popa Nan,44.42818,26.12718
459919,2025-09-03T00:47:22Z,Strada Speranței,44.331329,26.198234
460174,2025-09-03T00:43:37Z,Strada Călugăreni,44.313871,26.193453
460312,2025-09-03T00:35:25Z,Berceni,44.322485,26.18334
460327,2025-09-03T00:40:30Z,Berceni,44.301641,26.199352
460345,2025-09-03T00:47:45Z,Berceni,44.332958,26.173339
464341,2025-09-03T00:47:49Z,Strada Iernii,44.40106191129,25.98359084126
466795,2025-09-03T00:49:29Z,Strada Alexandru Lăpușneanu,44.48482444921,26.02662205729
470260,2025-09-03T00:37:31Z,Bulevardul Petrila,44.512061,26.017352
470575,2025-09-03T00:38:30Z,Strada Parcului,44.480006,26.054959
470590,2025-09-03T00:39:26Z,Calea Plevnei,44.435152,26.086519
470611,2025-09-03T00:36:22Z,Strada Nicolae G. Caramfil,44.480272,26.093297
470614,2025-09-03T00:37:26Z,Calea Plevnei,44.437271,26.07827
470632,2025-09-03T00:43:42Z,Strada Topraisar,44.463008,26.048018
470644,2025-09-03T00:36:14Z,Strada George Călinescu,44.462381,26.100929
470659,2025-09-03T00:47:05Z,Străulești,44.513875,26.021871
470662,2025-09-03T00:38:13Z,Bulevardul Dinicu Golescu,44.44522,26.075118
470677,2025-09-03T00:44:20Z,Strada Temișana,44.442403,26.086568
470683,2025-09-03T00:36:23Z,Bulevardul Bucureștii Noi,44.489778,26.034043
470692,2025-09-03T00:36:56Z,Strada Pajurei,44.483008,26.047212
470695,2025-09-03T00:38:11Z,Strada Feleacu,44.482867,26.093335
470797,2025-09-03T00:37:23Z,Bulevardul Expoziției,44.475308,26.073024
470800,2025-09-02T12:52:26Z,Strada Cluj,44.461852,26.0715
470806,2025-09-03T00:49:12Z,Aleea Someșul Rece,44.496511,26.075407
470809,2025-09-03T00:40:18Z,Bulevardul Ion Mihalache,44.470128,26.055156
470821,2025-09-03T00:39:57Z,Strada Herminei,44.487052,26.017071
470917,2025-09-03T00:38:32Z,Strada Iani Buzoiani,44.457362,26.065642
470944,2025-09-03T00:39:37Z,Bulevardul Bucureștii Noi,44.487509,26.036897
470971,2025-09-03T00:48:45Z,Strada Barbu Delavrancea,44.462723,26.078595
470974,2025-09-03T00:36:13Z,Calea Griviței,44.461075,26.058592
470995,2025-09-03T00:38:38Z,Strada Măguricea,44.482206,26.098301
471022,2025-09-03T00:39:44Z,Strada Olteniei,44.486893,26.033855
471025,2025-09-03T00:38:21Z,Strada Soldat Neagoe Teodor,44.489328,26.00864
471028,2025-09-03T00:39:19Z,Străulești,44.509035,26.025522
471067,2025-09-03T00:37:45Z,Bulevardul Ficusului,44.48965,26.083868
471076,2025-09-03T00:43:49Z,Bulevardul Iancu de Hunedoara,44.453212,26.092081
471100,2025-09-03T00:39:13Z,Strada Rabat,44.458798,26.091562
471106,2025-09-03T00:39:14Z,Floreasca,44.45542,26.098083
471109,2025-09-03T00:37:11Z,Aleea Privighetorilor,44.519229,26.090952
471379,2025-09-03T00:41:12Z,Strada Monetăriei,44.456026,26.083328
471400,2025-09-03T00:36:36Z,Aleea Constantin Sandu-Aldea,44.467936,26.062175
471409,2025-09-03T00:46:26Z,Strada Arhitect Ion Mincu,44.459205,26.083991
471412,2025-09-03T00:47:36Z,Aleea Locotenent Aviator Gheorghe Stâlpeanu,44.464256,26.073843
471439,2025-09-03T00:37:20Z,Intrarea Mănăstirea Bistrița,44.456924,26.063969
471442,2025-09-03T00:47:11Z,Strada Făurei,44.48143,26.05389
471445,2025-09-03T00:38:01Z,Strada Automatizării,44.504169,26.060483
471499,2025-09-03T00:36:58Z,Bulevardul Dacia,44.445742,26.092872
475240,2025-09-03T00:44:26Z,Roșu,44.4502,26.0112
475333,2025-09-03T00:48:21Z,Strada Oașului,44.54144,26.073299
475354,2025-04-15T18:55:34Z,Odăile,44.545464,26.056977
475357,2024-11-24T18:40:10Z,Otopeni,44.552231,26.063263
475360,2024-09-06T17:40:40Z,Strada Ferme G,44.581561,26.075476
491167,2025-09-03T00:47:42Z,Strada Migdalilor,44.46267442606,26.19680285454
504721,2024-12-09T12:06:34Z,Bulevardul Timișoara,44.4266283128,26.04153513908
504727,2025-06-10T13:20:58Z,Bulevardul Pache Protopopescu,44.44172870475,26.12948209047
507493,2025-09-03T00:49:36Z,Greenfield AQI,44.5332755000425,26.0978985473416
515524,2025-09-03T00:42:21Z,Bulevardul Timișoara,44.42717214,26.0155216
520810,2025-09-03T00:43:25Z,Strada Apusului,44.4348645,26.0116597
521119,2025-09-03T00:44:20Z,Cosoba,44.51962752476,25.80155038428
527830,2025-06-15T01:40:28Z,Strada Mușetești,44.486,26.102
533707,2025-09-03T00:49:37Z,Strada Băiculești,44.482904,26.058967
534451,2025-09-03T00:49:32Z,Str G Bucharest - Pipera ,44.4780261703504,26.1198858160348
541726,2025-09-03T00:46:49Z,Strada Afânata,44.476724,26.029018
541729,2025-09-03T00:49:01Z,Șoseaua Chitilei,44.491302,25.998745
541732,2025-09-03T00:49:08Z,Strada Harghita,44.494953,26.024354
541738,2025-09-03T00:39:20Z,Bulevardul Alexandru Ioan Cuza,44.450801,26.07668
542218,2025-09-02T16:24:22Z,Drumul Gura Putnei,44.4130622734,26.19218730864
542476,2025-09-03T00:49:11Z,Drumul Gura Crivățului,44.41249793129,26.19358420372
547492,2025-09-02T19:12:36Z,Strada Constantin Buzdugan,44.463611,26.062273
76423,2025-09-03T00:47:14Z,Strada Orzari,44.43373654232,26.13383666165
94603,2025-09-03T00:49:36Z,Bulevardul General Gheorghe Magheru,44.444,26.098
